site ID,site desig,site name,state/quad,UTM,UTM East,UTM North,Elevation,period,earliest,latest,mean date,Run I group,Run II group,Run III group,Run IV group,Run V group,latitude,longitude
3,NA1027,Bidahochi,AZJ12001,12,589540,3909520,5600,PIV,1250,1350,1300,V,V,VII,V,V,35.32490611,-110.0148638
4,NA820,Awat Yello,AZJ00101,12,565250,3953400,6400,PIV,1300,1400,1350,V,V,VII,V,V,35.72240788,-110.2785526
5,NA1019,Kokopyama,AZJ00601,12,579250,3959900,6400,PIV,1275,1400,1338,V,V,VII,V,V,35.77997957,-110.1231315
6,NA1001,Kawaika'a,AZJ00501,12,570500,3955600,6400,PIV,1250,1500,1375,V,V,VII,V,V,35.74188001,-110.2203165
7,AZ:J:4:1,Pink Arrow,AZJ01001,12,576750,3959250,6400,PIV,1275,1400,1338,V,V,VII,V,V,35.77431814,-110.1508525
8,NA659,Chavez Pas,AZ002801,12,486700,3848300,6600,PIV,1250,1400,1325,IV,IV,VI,IV,IV,34.77678998,-111.1453571
9,NA952,Homolovi I,AZJ14:3,12,530750,3877100,4860,PIV,1285,1390,1338,V,V,VII,V,V,35.03611474,-110.6628723
10,NA953,Homolovi 2,AZJ14:1,12,532610,3882350,4935,PIV,1350,1400,1375,V,V,VII,V,V,35.08339655,-110.6422741
11,,Homolovi,,12,532610,3882350,4935,PIV,1350,1400,1375,V,V,VII,V,V,35.08339655,-110.6422741
12,,Homolovi 3,AZJ14:14,12,529400,3883260,4820,PIV,1285,1375,1330,V,V,VII,V,V,35.09170093,-110.6774544
13,,Homolovi 4,AZJ14:13,12,528660,3884290,4870,PIV,1260,1285,1273,IV,IV,VI,IV,IV,35.10100993,-110.6855371
14,NA 1003,Showlow,AZP01101,12,589240,3791400,6300,PIV,1325,1400,1363,V,V,VII,V,V,34.25991127,-110.0307084
15,NA 3348,Kinishba,AZV02501,12,587540,3741820,5500,PIV,1200,1400,1300,V,V,VII,V,V,33.81296192,-110.0541467
16,AZV:2:1,CanyCreek,AZV00101,12,531677,3758289,5800,PIV,1325,1425,1375,V,V,VII,V,V,33.96464635,-110.6571244
17,NA4568,FourMile,AZPO1301,12,579500,3813700,5800,PIV,1100,1400,1325,IV,IV,VI,IV,IV,34.46178924,-110.1344242
18,LA416,PotteryMou,,13,322854,3846735,5000,PIV,1300,1450,1375,V,V,VII,V,V,34.74738399,-106.9352318
19,NA814,Sikyatki,AZJ3:1,12,556820,3968620,6200,,1275,1530,1403,V,V,VIII,VI,VI,35.86014972,-110.3706739
20,NA9584,Rye Creek,AZO:15:1,12,467680,3770560,3000,,1320,1450,1385,V,V,VII,V,V,34.07529551,-111.3502897
21,,Iron Rock,AZO:5:18,12,417212,3847844,3900,,1300,1425,1363,V,V,VII,V,V,34.76940319,-111.9047053
22,NA785,Tonto,AZU00101,12,489280,3722540,3200,,1350,1450,1400,V,V,VII,V,V,33.64264224,-111.115601
23,NA1261,Tuzigoot,AZN00101,12,406100,3847700,3360,PIV,1200,1400,1300,,,,,,34.76714203,-112.0261047
24,NA1629,Kinnikinni,AZ002901,12,476360,3860300,6800,PIII,1250,1385,1318,V,V,VII,V,V,34.88481382,-111.2587015
25,NA1015,Kintiel,AZKO1301,12,636200,3920100,6200,PIII,1150,1300,1225,IV,IV,VI,IV,IV,35.41500045,-109.4998675
26,NA1026,Chevelon,AZP:2:11,12,544150,3866880,4940,,1280,1400,1340,V,V,VII,V,V,34.94346253,-110.5165075
27,NA1269,IndianDome,AZO:5:16,12,416229,3839754,3500,,1300,1425,1363,V,V,VII,V,V,34.69637792,-111.9146422
28,,ClinesTerr,AZU:4:33,12,477453,3736696,2180,,1320,1450,1385,V,V,VII,V,V,33.770134,-111.2434988
29,,North,AZO:5:1,12,415206,3842584,3531,,1300,1425,1363,V,V,VII,V,V,34.72181082,-111.9260948
30,,Limestone,AZO:5:19,12,416500,3839625,3300,,1300,1425,1363,V,V,VII,V,V,34.69523693,-111.9116709
31,NA8004,Wupatki,AZI07701,12,466290,3930720,4900,PIII,1100,1215,1158,IV,IV,V,IV,IV,35.5195031,-111.3717821
32,NA2160,Inscriptio,AZD00101,12,516120,4058100,5600,,1200,1300,1250,IV,IV,VI,IV,IV,36.66837217,-110.8196082
33,NA11296,Rainbow568,,12,560785,4064850,5800,,1200,1275,1238,IV,IV,VI,IV,IV,36.72741257,-110.3192657
34,NA4428,Pt of Pine,AZW00401,12,617350,3690920,5900,PIII,1270,1300,1285,IV,IV,VI,IV,IV,33.35108969,-109.7388107
35,,CarterRanc,AZQ00801,12,600340,3815580,5800,PIII,1100,1225,1163,IV,IV,V,IV,IV,34.47692341,-109.9073353
36,,Joint,AZQ01901,12,596740,3821980,5750,PIII,1220,1270,1245,IV,IV,VI,IV,IV,34.5349741,-109.9458056
37,,Broken K,AZQ00901,12,598200,3821880,5800,PIII,1150,1280,1215,IV,IV,VI,IV,IV,34.53393408,-109.9299097
38,,HigginFlat,NMS02201,12,707640,3737430,6000,,1150,1350,1250,IV,IV,VI,IV,IV,33.75662928,-108.7581388
39,LA4425,FooteCanyo,,12,670065,3717936,5600,,1250,1350,1300,V,V,VII,V,V,33.58759679,-109.1673615
40,,TableRock,AZQ00701,12,651200,3818400,5700,PIV,1325,1385,1355,V,V,VII,V,V,34.49613926,-109.3531573
41,,HooperRanc,,12,656600,3783950,6750,,1200,1375,1288,IV,IV,VII,V,IV,34.18478551,-109.3006413
42,,SandCanyon,COV23301,12,696800,4141220,6800,PIII,1250,1285,1268,IV,IV,VI,IV,IV,37.39687393,-108.7767076
43,,Hodges,AZAA1201,12,494980,3576120,,,,,,,,,,,32.32191771,-111.053334
44,,Rabid,AZAA1204,12,497160,3571340,,,,,,,,,,,32.27880316,-111.0301587
45,,Chodistaas,AZPO3201,12,534399,3771700,6079,PIII,1260,1300,1280,IV,IV,VI,IV,IV,34.08551043,-110.6271331
46,,Grasshoppe,AZPO1501,12,533895,3771587,5900,PIV,1275,1400,1338,V,V,VII,V,V,34.08450778,-110.6326005
47,NA 837,Hoyapi,,12,542802,3953266,5500,,1250,1350,1300,V,V,VII,V,V,35.72243176,-110.5267502
48,NA7719,Neskahi,UTVO5501,12,534300,4102860,5935,PIII,1250,1300,1275,IV,IV,VI,IV,IV,37.07137589,-110.6141429
49,NA4317,Pollock,AZ003001,12,479000,3860000,6500,PIII,1250,1325,1288,IV,IV,VII,V,IV,34.8821666,-111.2298037
50,,TurkeyCree,AZWO1901,12,612000,3696000,6000,PIII,1230,1290,1260,IV,IV,VI,IV,IV,33.39747092,-109.7956659
51,,Site 616,NMM00501,12,742560,3823580,7250,PIII,1150,1325,1238,IV,IV,VI,IV,IV,34.52535037,-108.3573651
52,,site 481,NMM00301,12,739000,3820000,7200,PIII,1200,1300,1250,IV,IV,VI,IV,IV,34.49393157,-108.3971185
53,,site 494,NMM00401,12,739000,3822000,7200,PIII,1100,1200,1150,IV,IV,V,IV,IV,34.51194926,-108.396558
54,NA8163,NA8163,AZD06502,12,524560,4033360,6195,PIII,1150,1300,1225,IV,IV,VI,IV,IV,36.44516058,-110.7259494
55,NA11047,NA11047,AZD28901,12,532860,4038340,6334,PIII,1240,1300,1270,IV,IV,VI,IV,IV,36.489807,-110.6331246
56,NA1006,Pinedale,AZP00801,12,570360,3795580,6400,,1275,1400,1338,V,V,VII,V,V,34.2990553,-110.2354165
57,NA879,Antelope H,AZEO1304,12,639960,4002360,5748,PIII,1140,1270,1205,IV,IV,VI,IV,IV,36.15588543,-109.4440816
58,NA897,LongHouse,AZDO1001,12,546060,4052860,6400,,1150,1300,1225,IV,IV,VI,IV,IV,36.62015691,-110.4848857
59,NA2519,Kiet Siel,AZDO4201,12,545050,4068250,7000,PIII,1150,1300,1225,IV,IV,VI,IV,IV,36.75893915,-110.4952748
60,,Jewett Gap,NMM01101,12,715000,3768000,7800,PIII,1125,1200,1163,IV,IV,V,IV,IV,34.03064635,-108.6712505
61,LA8846,Salmon,NMA00602,12,765468,4065673,5420,PIII,1200,1300,1250,IV,IV,VI,IV,IV,36.69967176,-108.0284428
62,387,Bonito,NMB01401,13,233283,3994524,6120,,920,1150,1035,III,III,IV,III,III,36.05875334,-107.9611159
63,1229,Mug House,COVO5202,12,718140,4119720,7200,PIII,1200,1300,1250,IV,IV,VI,IV,IV,37.19847541,-108.5421304
64,1200,Long House,COVO4701,12,718820,4118220,7000,PIII,1200,1300,1250,IV,IV,VI,IV,IV,37.18480758,-108.5349145
65,NA1132,Chukubi,,12,545650,3964820,6300,,1300,1500,1400,V,V,VIII,VI,VI,35.82647389,-110.494603
66,NA1513,Walpi,,12,554800,3965511,6120,,1400,1700,1550,VI,V,IX,VI,VII,35.83223511,-110.3932594
67,NA871,Mishongnov,,12,554400,3965330,6180,,1350,1650,1500,VI,V,IX,VI,VII,35.83062554,-110.3977003
68,NA 868,Old Shongo,,12,541969,3962967,5800,,1350,1650,1500,VI,V,VIII,VI,VI,35.80993184,-110.5354519
69,NA1699,Old Walpi,,12,554363,3965511,5500,,1400,1690,1545,VI,V,IX,VI,VII,35.83225944,-110.3980976
70,NA828,Oraibi,,12,532718,3969867,5650,,1250,1900,1575,,,,,,35.87249433,-110.6375647
71,NA1022,Stone Axe,AZQ2:22,12,618324,3858199,5600,,1300,1450,1375,V,V,VII,V,V,34.85925337,-109.7055733
72,5MT3807,Goodman Po,COV24701,12,700800,4142980,6720,PIII,1225,1275,1250,IV,IV,VI,IV,IV,37.41186767,-108.7310726
73,1452,Badger Hou,COV11401,12,719280,4118420,7080,PIII,1000,1100,1050,III,III,IV,III,III,37.18650083,-108.5296781
74,1595,Big Junipe,COV11501,12,718460,4119060,7220,,1050,1150,1100,III,III,V,III,III,37.19245674,-108.5387209
75,875,875,COV12401,12,721200,4123920,7680,,950,1000,975,III,III,III,III,III,37.23557854,-108.5064363
76,499,499,COV08401,12,721040,4123780,7640,PIII,1100,1150,1125,III,III,V,III,III,37.23435572,-108.50828
77,LA 45,Aztec,NMBO5502,13,232645,4080575,5640,PIII,1200,1300,1250,IV,IV,VI,IV,IV,36.83329717,-107.9978759
78,,Lowry,COV00201,12,683700,4161580,6720,PIII,1085,1150,1118,III,III,V,III,III,37.58296115,-108.9195265
79,5MT1,Porter,COV12502,12,701940,4153640,6840,PIII,1050,1300,1175,IV,IV,VI,IV,IV,37.50762967,-108.7152799
80,5MT3,Yellow3,COV12602,12,702560,4153820,6800,,1050,1300,1175,IV,IV,VI,IV,IV,37.50911497,-108.7082208
81,5MT1,Steveson,COV12501,12,701840,4153640,6800,BM3,650,700,675,I,I,I,I,I,37.50765154,-108.7164105
82,LA2464,KinKletso,NMB01101,13,232540,3995050,6120,PIII,1120,1175,1148,III,III,V,III,III,36.06328532,-107.9695329
83,LA838,ChetroKetl,NMB00601,13,233990,3994480,6170,PIII,1000,1200,1100,III,III,V,III,III,36.05855073,-107.9532613
84,LA41947,Del Arroyo,NMB01501,13,232920,3994600,6100,PIII,1060,1190,1125,III,III,V,III,III,36.05933804,-107.9651668
85,LA661,Alto,NMB19701,13,233710,3995540,6440,,1020,1175,1098,III,III,IV,III,III,36.06801818,-107.9567235
86,LA225,Blanco,NMB01301,12,769900,3996975,6270,,900,1180,1040,III,III,IV,III,III,36.07994307,-108.0027516
87,LA143,UnaVida,NMB02301,13,237660,3991380,6200,,950,1150,1050,III,III,IV,III,III,36.03163426,-107.9115355
88,BC50,TsehTso,NMB02101,13,233420,3993880,6160,PIII,950,1150,1050,III,III,IV,III,III,36.05299244,-107.9593794
89,LA40395,BC 51,NMB00101,13,233590,3993780,6140,,950,1150,1050,III,III,IV,III,III,36.05213861,-107.9574608
90,LA40399,BC 59,NMB00201,13,233440,3993750,6150,,950,1150,1050,III,III,IV,III,III,36.05182742,-107.9591138
91,LA2470,TalusUnit1,NMB01801,13,233820,3994485,6180,PII,1030,1150,1090,III,III,IV,III,III,36.05854926,-107.9551481
92,LA1280,AlkaliRidg,UTW00101,12,645140,4167520,6240,PI,700,800,750,I,I,I,I,I,37.64336829,-109.3548678
93,LA8243,MittenRock,NMA00801,12,684960,4052423,5700,,700,1000,850,I,I,I,I,I,36.59938675,-108.9321681
94,,TlaKii,AZP00401,12,584600,3777300,6080,,800,1125,963,,,,,,34.1331531,-110.0824789
95,LA40625,3C site,,13,236320,3990850,6240,,850,1050,950,III,III,III,III,III,36.02650018,-107.9262133
96,LA4050,Leyit Kin,,13,234245,3993550,6200,,950,1150,1050,III,III,IV,III,III,36.05024681,-107.9501208
97,LA40396,BC 53,,13,233765,3993860,6150,,950,1150,1050,III,III,IV,III,III,36.05290681,-107.9555473
98,LA40397,BC 57,,13,233510,3993930,6150,,950,1150,1050,III,III,IV,III,III,36.05346728,-107.9583984
99,LA40398,BC 58,,13,233470,3993900,6150,,950,1150,1050,III,III,IV,III,III,36.05318621,-107.9588318
100,,Bennett 5,,12,704954,4016718,5730,,900,1100,1000,III,III,III,III,III,36.27366607,-108.7182303
101,,Bennett 6,,12,698400,4030570,,,,,,,,,,,36.39982432,-108.7876189
102,,Bennett 7,,12,698320,4030200,6000,,1000,1125,1063,III,III,IV,III,III,36.39650765,-108.7886049
103,,Bennett 8,,12,698200,4028060,,,,,,,,,,,36.37725393,-108.7904878
104,,Bennett 9,,12,692090,4028060,,,,,,,,,,,36.37849412,-108.8585578
105,,Bennett 10,,12,692090,4028000,,,,,,,,,,,36.37795358,-108.8585726
106,,Bennett 36,,12,702770,4028070,,,,,,,,,,,36.37639109,-108.7395748
107,,Bennett 37,,12,702770,4028000,,,,,,,,,,,36.3757605,-108.739593
108,,LaPlata 19,,12,749100,4110900,6500,BM3,700,800,750,I,I,I,I,I,37.11131803,-108.1965851
109,,LaPlata 23,COV01701,12,750000,4101000,6200,BM3,700,900,800,I,I,I,I,I,37.02194408,-108.1897603
110,,LaPlata 33,COV01401,12,732000,4108000,6720,,700,900,800,II,II,II,II,II,37.08959704,-108.3897395
111,,LaPlata 39,,12,747980,4082320,5600,,800,1150,975,III,III,IV,III,III,36.85428753,-108.2185667
112,,Shemopavi,,12,542550,3962850,6200,,1350,1650,1500,VI,V,VIII,VI,VI,35.80885195,-110.5290273
114,NA2806,ClearCreek,AZO:5:25,12,427100,3821400,3100,,1300,1425,1363,V,V,VII,V,V,34.53171028,-111.7943813
115,NA772,EldenPuebl,AZI02701,12,448400,3899900,6940,PIII,1070,1275,1173,IV,IV,V,IV,IV,35.24084725,-111.5671329
116,NA6302,PuercoRuin,AZQ:12:2,12,610180,3870780,5350,,1250,1350,1300,V,V,VII,V,V,34.97359376,-109.7929884
118,LA6383,Prarie Dog,NMG02301,12,755910,3919700,7060,PII,950,1050,1000,III,III,IV,III,III,35.38784103,-108.1825745
119,LA6390,BlueSpruce,NMG02601,12,766540,3917640,6880,PII,925,975,950,III,III,III,III,III,35.36650583,-108.0663504
120,LA2714,Wingate,NMG02101,12,721040,3932976,6700,PII,950,1125,1038,III,III,IV,III,III,35.51578117,-108.5625335
121,,Sites3&4,COV00105,12,689900,4159200,6860,PI,900,1000,950,III,III,III,III,III,37.56026583,-108.8499703
122,,Sites 1&2,COV00106,12,689900,4166000,6600,PI,750,900,825,II,II,II,II,II,37.62151452,-108.8482068
123,5MT5,Yellow5,,12,702710,4154645,6800,,1075,1250,1163,IV,IV,V,IV,IV,37.51651232,-108.7062975
124,LA5631,LaPlata 41,NMA01201,12,750088,4096414,5500,,1150,1300,1225,IV,IV,VI,IV,IV,36.98063035,-108.1902932
125,,LaPlata 36,,12,748750,4083220,5600,,1150,1300,1225,IV,IV,VI,IV,IV,36.86218873,-108.2096446
126,LA1988,LaPlata 40,,12,732786,4084697,,,,,,,,,,,36.87955774,-108.388093
127,5MT2830,LaPlata 13,,12,732540,4108530,6650,,800,870,835,II,II,II,II,II,37.09423577,-108.3835055
128,,LaPlata 18,,12,744460,4106650,6600,,800,870,835,II,II,II,II,II,37.07427441,-108.2501333
129,LA 1898,Holmes,,12,751500,4090300,5700,,,,,,,,,,36.92520645,-108.1764814
130,LA41360,1360,NMB18201,13,237900,3989995,6220,,900,1030,965,III,III,III,III,III,36.01922798,-107.9084163
131,LA40627,627,,13,236500,3991085,6200,,950,1050,1000,III,III,III,III,III,36.02866487,-107.9242963
132,LA625,Pecos,NMJ01201,13,437500,3934100,6900,,1325,1540,1433,V,V,VIII,VI,VI,35.54858069,-105.6895473
133,,Gila Puebl,AZVO2201,12,521700,3691580,3800,PIV,1320,1450,1385,V,V,VII,V,V,33.36322889,-110.7667451
134,,CO.W.13.2,,13,245970,4125320,6600,BM3,650,800,725,I,I,I,I,I,37.2398154,-107.8637353
135,,CO.W.13.3,,13,245420,4121920,6700,BM3,650,800,725,I,I,I,I,I,37.20905598,-107.8687679
136,,CO.W.14-15,,13,245530,4132060,6600,BM3,650,800,725,I,I,I,I,I,37.30037346,-107.8709947
137,,CO.W.9,,13,247040,4141320,7000,BM3,650,800,725,I,I,I,I,I,37.38415024,-107.8571371
138,NA8038,HouckA,AZKO2501,12,663000,3905000,6000,PII,1030,1300,1165,,,,,,35.27488544,-109.2078147
139,NA8039,HouckB,AZKO2502,12,663000,3905000,6000,PII,,,,,,,,,35.27488544,-109.2078147
140,NA8942,HouckE,AZKO2505,12,664340,3900500,6000,,,,,,,,,,35.23410977,-109.193988
141,NA8944,Houck,AZKO2506,12,660460,3900580,6000,PI,,,,,,,,,35.23545941,-109.2365934
142,NA2133,WinonaVill,AZIO7501,12,463000,3896200,6300,PII,1070,1130,1100,III,III,V,III,III,35.20813034,-111.4065029
143,,1801,,12,719770,4118235,7000,,975,1150,1063,III,III,IV,III,III,37.18471958,-108.5242171
144,NA4175,Three Hoga,AZK00501,12,673800,3910100,6200,PI,700,800,750,I,I,I,I,I,35.31902945,-109.0880447
145,NA7422,Vandal Cav,AZE00201,12,650000,4050000,6400,,1150,1300,1225,IV,IV,VI,IV,IV,36.58369307,-109.3233202
146,NA7068,WhiteMound,AZK01101,12,666050,3905080,6100,,780,810,795,I,I,I,I,I,35.27510509,-109.1742788
147,NA10602,Broken Flu,AZE02701,12,657360,4056200,6600,,620,650,635,I,I,I,I,I,36.63837436,-109.2398159
148,NA1587,King'sRuin,AZN00201,12,355000,3870000,4400,,1125,1300,1213,IV,IV,VI,IV,IV,34.96217308,-112.5882113
149,LA12076,Mitchell,NMZ00501,13,219600,3643800,6080,,1000,1150,1075,,,,,,32.89650907,-107.9975721
150,LA635,Galaz,NMZ00401,13,226615,3632635,5680,,,,,,,,,,32.79770025,-107.9193669
151,LA676,Mattocks,NMZ00301,13,222500,3637700,5890,,1000,1150,1075,,,,,,32.84229671,-107.9647754
152,LA16241,Treasure,,12,762240,3629866,5900,,1000,1150,1075,,,,,,32.77546912,-108.2003028
153,LA169,Otowi,NMI04801,13,388763,3971363,6650,PIV,1325,1540,1433,V,V,VIII,VI,VI,35.88020729,-106.2323254
154,LA306,Sapawe,NMC02801,13,396052,4017595,6470,PIV,1350,1525,1438,V,V,VIII,VI,VI,36.29774256,-106.157686
155,LA211,Tsankawi,NMI05001,13,390374,3969101,6660,PIV,1325,1540,1433,V,V,VIII,VI,VI,35.85999914,-106.2141706
156,LA482,Kwastiyukw,NMI08501,13,341400,3958760,7600,PIV,1400,1540,1470,VI,V,VIII,VI,VI,35.76010193,-106.754341
157,LA187,Kuaua,NMI02201,13,358562,3910564,5080,,1300,1600,1450,VI,V,VIII,VI,VI,35.32831697,-106.556155
158,LA47,Puye,NMI00201,13,389223,3981624,7000,,1325,1600,1463,VI,V,VIII,VI,VI,35.97275189,-106.2286607
159,LA326,Puaray,NMI07601,13,356550,3908000,5100,,1300,1600,1450,VI,V,VIII,VI,VI,35.30491933,-106.5778353
160,LA162,Paako,NMI03401,13,380374,3895759,6480,,1360,1565,1463,VI,V,VIII,VI,VI,35.19770548,-106.3140757
161,LA679,Guisewa,,13,347600,3960500,6250,,1400,1700,1550,VI,V,IX,VI,VII,35.77676406,-106.6861184
162,LA481,Amoxumqua,NMI01201,13,345090,3959760,7600,,1325,1540,1433,V,V,VIII,VI,VI,35.7697025,-106.7137343
163,LA123,Unshagi,NMI00701,13,350758,3965887,6760,,1400,1630,1515,VI,V,IX,VI,VII,35.82579905,-106.6521975
164,LA541,Nanishangi,NMI04201,13,349682,3965238,6760,,1400,1630,1515,VI,V,IX,VI,VII,35.81978569,-106.6639828
165,LA170,Tsirege,NMI00301,13,389296,3965161,6600,,1325,1600,1463,VI,V,VIII,VI,VI,35.82436229,-106.2255611
166,LA38624,Starkweath,NMSO1701,12,704000,3734250,6060,,1050,1200,1125,IV,IV,VI,IV,IV,33.72867654,-108.7981465
167,LA40299,299,NMB09901,13,237770,3990290,6200,,950,1050,1000,III,III,III,III,III,36.02184926,-107.9099549
168,LA40628,628,NMB17601,13,236420,3991110,6220,,550,750,650,I,I,I,I,I,36.02886832,-107.9251914
169,LA40629,629,NMB18501,13,236360,3991110,6240,PII,950,1050,1000,III,III,III,III,III,36.02885208,-107.9258565
170,LA7352,BennetPLoc,,12,701620,4026725,5660,,900,1250,1075,,,,,,36.36451658,-108.7527344
171,LA40400,BC 52,,13,233530,3993640,6150,,950,1150,1050,III,III,IV,III,III,36.05086165,-107.9580788
172,LA40589,BC 236,NMB20601,13,238845,3990465,6200,,950,1150,1050,III,III,IV,III,III,36.02371379,-107.8980972
173,LA41167,Chiquita,NMB00401,13,231980,3995520,6100,,950,1150,1050,III,III,IV,III,III,36.0673629,-107.9759024
174,LA 827,BC 362,NMB02501,13,231840,3995220,6100,,950,1150,1050,III,III,IV,III,III,36.06462322,-107.9773531
175,LA 1580,KinBineola,NMA01302,12,757768,3987917,6060,,900,1180,1040,III,III,IV,III,III,36.00167207,-108.1402763
176,LA 386,Rinconada,NMB00501,13,233725,3993919,6160,,1030,1150,1090,III,III,IV,III,III,36.05342709,-107.9560107
177,LA3317,Waterflow,,12,731501,4070442,5200,,1050,1300,1175,,,,,,36.75150116,-108.4068344
178,LA7002,BlueShale,,12,702800,4008588,5750,,900,1300,1100,,,,,,36.20088141,-108.7443002
179,LA7073,Crumbled,,12,698968,4010085,5880,,1150,1250,1200,IV,IV,VI,IV,IV,36.21516325,-108.7865138
180,LA7288,Pena Blanc,,12,717617,4037958,5260,,1000,1150,1075,III,III,IV,III,III,36.46220885,-108.5714208
181,LA7692,Sanostee,,12,692870,4034045,5250,,1000,1250,1125,III,III,V,III,III,36.4322566,-108.848381
182,LA8530,Naschitti,,12,711928,3990910,5780,,900,1150,1025,III,III,IV,III,III,36.03967969,-108.6476049
183,LA7611,Tocito,,12,698625,4030138,5740,,1100,1250,1175,IV,IV,V,IV,IV,36.39588612,-108.7852221
184,,Toadlena,,12,689670,4012170,6700,,875,1050,963,III,III,III,III,III,36.23581627,-108.8893828
185,,TohatchiFl,,12,701000,3956150,6320,,925,1125,1025,III,III,IV,III,III,35.72883492,-108.7775918
186,,NewcombMes,,12,705400,4017750,5600,,925,1125,1025,III,III,IV,III,III,36.28286784,-108.7129972
187,LA5196,Whitewater,,12,682757,3899106,6200,,900,1125,1013,III,III,III,III,III,35.2183593,-108.9920094
188,LA6384,Prewitt,,12,756630,3919620,7050,,950,1125,1038,III,III,IV,III,III,35.3869355,-108.1746814
189,LA7045,SkunkSpr,,12,701026,4012055,5820,,825,1125,975,,,,,,36.23248485,-108.763129
190,LA4086,NavReserv,,13,287023,4099142,6000,,800,920,860,II,II,II,II,II,37.01433496,-107.3938998
191,LA2578,Tohat HWS,,,,,,,950,1125,1038,,,,,,NaN,NaN
192,LA2508A,TohatWash,,12,704910,3959240,6180,,900,1000,950,III,III,III,III,III,35.75586747,-108.7336005
193,LA,NewcombLoc,,12,703933,4016714,5620,,850,1200,1025,,,,,,36.27384633,-108.7295901
194,LA4487,WhiteManue,,12,682860,3921530,6360,,800,850,825,II,II,II,II,II,35.42041198,-108.9858719
195,5MT338,Cannonball,,12,679760,4134940,5400,,1250,1280,1265,IV,IV,VI,IV,IV,37.343765,-108.9706215
196,34,SodaCanyon,COV08601,12,723420,4126260,7680,,1025,1200,1113,III,III,V,III,III,37.25612154,-108.4807307
197,,1088,,12,729280,4131270,7000,,1050,1100,1075,III,III,IV,III,III,37.29981163,-108.4131699
198,13,Bone Awl,COV02901,12,726360,4114880,6680,,1150,1250,1200,IV,IV,VI,IV,IV,37.15293296,-108.4510602
199,,16,COV08201,12,723480,4115720,6875,,900,1100,1000,III,III,III,III,III,37.16119042,-108.483211
200,102,TwinTrees,COV03401,12,723120,4115900,6880,,750,900,825,II,II,II,II,II,37.16289742,-108.487208
201,625,ClifPalace,COV03301,12,724440,4116180,6800,,1250,1300,1275,IV,IV,VI,IV,IV,37.16510286,-108.4722712
202,809,PipeShrine,COV06701,12,721140,4123900,7680,,975,1075,1025,III,III,III,III,III,37.23541267,-108.5071181
203,,866,COV12301,12,721100,4124020,7680,,1000,1070,1035,III,III,IV,III,III,37.23650282,-108.507533
204,,1107,,12,717235,4123965,7200,,975,1075,1025,III,III,III,III,III,37.2369163,-108.5510826
205,,1187,,12,716891,4123658,7000,,1150,1300,1225,IV,IV,VI,IV,IV,37.23423162,-108.5550467
206,1212,KodakHouse,COV04501,12,719240,4117240,6920,,1150,1300,1225,IV,IV,VI,IV,IV,37.17588343,-108.5304745
207,,1403,,12,720630,4115990,6800,,1150,1300,1225,IV,IV,VI,IV,IV,37.16429907,-108.5151998
208,,1230,COV10301,12,717900,4119700,6800,,1050,1150,1100,III,III,V,III,III,37.19835135,-108.5448381
209,,1235,,12,717022,4121118,6900,,1150,1300,1225,IV,IV,VI,IV,IV,37.21132626,-108.5543104
210,1448,Daniels,COV11301,12,720000,4120000,7000,,1050,1150,1100,III,III,V,III,III,37.20056044,-108.5211084
211,,1249,,12,718388,4118748,7000,,1050,1150,1100,III,III,V,III,III,37.18966378,-108.5396227
212,,1875,,12,719987,4113332,6775,,975,1075,1025,III,III,III,III,III,37.14051337,-108.5232166
213,,1337,,12,719405,4116060,6450,,975,1075,1025,III,III,III,III,III,37.16521788,-108.5289638
214,,1344,,12,718570,4116360,6550,,975,1075,1025,III,III,III,III,III,37.16811531,-108.5382723
215,,1365,COV10801,12,720560,4116780,6840,,1150,1300,1225,IV,IV,VI,IV,IV,37.17143009,-108.5157544
216,,1368,,12,720630,4116580,7000,,1150,1300,1225,IV,IV,VI,IV,IV,37.16961242,-108.5150257
217,,1382,,12,720802,4117700,6550,,1150,1300,1225,IV,IV,VI,IV,IV,37.17965812,-108.5127593
218,1385,DoubleHous,COV11101,12,720120,4116820,6840,,1050,1200,1125,III,III,V,III,III,37.17189408,-108.5206943
219,5MT1825,CastleRock,COV29501,12,696200,4140600,6500,,1150,1300,1225,,,,,,37.39141678,-108.7836458
220,5MT2148,Dominguez,COV18101,12,717020,4150400,7120,,1100,1150,1125,III,III,V,III,III,37.47503002,-108.5457608
221,5MT2149,Escalante,COV17001,12,717040,4150540,7200,,1100,1150,1125,III,III,V,III,III,37.47628608,-108.5454935
222,5MT2151,LeMoc,COV19101,12,714830,4161700,6700,,800,900,850,II,II,II,II,II,37.57730378,-108.5672022
223,5MT2235,Marshview,COV19301,12,715050,4154040,6900,,1100,1175,1138,III,III,V,III,III,37.5082707,-108.566957
224,5MT2525,KnobbyKnee,COV25601,12,681450,4154100,6380,,,,,,,,,,37.51602923,-108.9468433
225,5MT2544,5MT2544,COV25501,12,682480,4155000,6400,,,,,,,,,,37.52393309,-108.934972
226,5MT3901,GreenLiz,COV25301,12,696240,4140620,6600,,1200,1280,1240,IV,IV,VI,IV,IV,37.39158846,-108.783189
227,5MT4126,IdaJean,COV18201,12,720135,4139687,6280,,1120,1300,1210,IV,IV,VI,IV,IV,37.37781991,-108.5137582
228,5MT4475,McPhee,COV19001,12,716520,4154880,6840,,860,980,920,III,III,III,III,III,37.51549158,-108.5500921
229,5MT5107,Golondrina,COV22101,12,716660,4155010,6840,,840,880,860,II,II,II,II,II,37.51662941,-108.548471
230,5MT3868,Duckfoot,COV23201,12,708620,4137320,6360,,850,880,865,II,II,II,II,II,37.35916422,-108.6443742
231,5MT11787,PuzzleHous,,12,685030,4160910,,,,,,,,,,,37.57665973,-108.9046421
232,5MT4802,Pigg Site,,12,684021,4161522,6700,,1175,1225,1200,IV,IV,VI,IV,IV,37.58237459,-108.9159078
233,5LP119,5LP119,COW06501,13,245016,4124886,6500,PI,,,,,,,,,37.23564775,-107.8743291
234,5LP2164,5LP2164,,,,,,,,,,,,,,,NaN,NaN
235,5MT2346,5MT2346,,,,,,,,,,,,,,,NaN,NaN
236,5MT2150,Hoy House,COV16501,12,729520,4111380,6600,,1130,1250,1190,IV,IV,VI,IV,IV,37.12064495,-108.4165821
237,5MT2156,Lion House,,12,731120,4110800,6350,,1130,1250,1190,IV,IV,VI,IV,IV,37.11502839,-108.3987686
238,NA7519,NA7519,UTVO4502,12,519680,4098780,5880,P3,1200,1300,1250,IV,IV,VI,IV,IV,37.03501861,-110.7787156
239,NA7520,NA7520,UTVO4504,12,519720,4099020,6000,P3,1200,1300,1250,IV,IV,VI,IV,IV,37.03718121,-110.7782595
240,,EdgeCedars,UTW11101,12,633300,4166700,6200,,1075,1125,1100,III,III,V,III,III,37.6377748,-109.4891767
241,,NatBridges,UTV00301,12,587000,4164000,6000,,1150,1300,1225,IV,IV,VI,IV,IV,37.61899513,-110.0141725
242,ML1147,WoodenShoe,,,,,,,,,,,,,,,NaN,NaN
243,5MT8651,5MT8651,,12,690540,4111960,5450,,1025,1280,1153,IV,IV,V,IV,IV,37.13461794,-108.8548746
244,5MT9541,5MT9541,,12,690900,4111480,5400,,1225,1280,1253,IV,IV,VI,IV,IV,37.13022077,-108.8509466
245,5MT9924,5MT9924,,12,690290,4111280,5360,,1075,1125,1100,III,III,V,III,III,37.12854345,-108.8578601
246,5MT9933,5MT9933,,12,690950,4111020,5380,,1200,1280,1240,IV,IV,VI,IV,IV,37.12606694,-108.8505013
247,5MT9934,5MT9934,,12,690590,4110610,5360,,1025,1125,1075,III,III,IV,III,III,37.12244709,-108.8546555
248,5MT9942,5MT9942,,12,691560,4112130,5550,,1025,1125,1075,III,III,IV,III,III,37.13594095,-108.8433552
249,5MT9943,5MT9943,,12,691560,4112200,5550,,1075,1280,1176,IV,IV,VI,IV,IV,37.1365715,-108.8433373
250,5MT10010,5MT10010,,12,690750,4112250,5500,,1125,1175,1150,III,III,V,III,III,37.13718743,-108.852438
251,5MT7704,5MT7704,,12,693260,4114420,,,,,,,,,,,37.15621887,-108.8236373
252,5MT7723,5MT7723,COV29701,12,699760,4116580,5739,,,,,,,,,,37.17430797,-108.7499124
253,5MT8899,5MT8899,COV26901,12,719960,4136600,6260,,,,,,,,,,37.35006181,-108.5166498
254,5MT8934,5MT8934,,12,718320,4141470,6350,,1000,1150,1075,,,,,,37.39430572,-108.5337135
255,5MT8938,5MT8938,COV27301,12,714800,4130920,6190,,,,,,,,,,37.30011697,-108.5765024
256,5MT10207,5MT10207,COV29401,12,692730,4114340,5700,,,,,,,,,,37.15560769,-108.8296225
257,5MT10206,5MT10206,COV30001,12,693000,4114240,5970,,,,,,,,,,37.15465121,-108.8266098
258,Verde:5:12,Chandler,AZO:5:20,12,416260,3839700,3500,,1300,1425,1363,V,V,VII,V,V,34.69589355,-111.9142984
259,Verde:5:41,All Nation,AZO:5:21,12,409420,3842830,3400,,1300,1425,1363,V,V,VII,V,V,34.72353215,-111.9893061
260,Rosev:6:3,Keystone,,12,490250,3724600,2200,,1320,1450,1385,V,V,VII,V,V,33.66123157,-111.1051634
261,Rosev:9:11,Schoolhous,AZU:8:24,12,499800,3723300,2170,,1350,1450,1400,,,,,,33.64955103,-111.0021569
262,AZ:I:14,TurkeyHill,AZI07001,12,452900,3900590,6700,P3,1225,1300,1263,IV,IV,VI,IV,IV,35.24729043,-111.517715
263,AZ:N:16:6,Gipe,,12,398400,3784750,3400,,1300,1425,1363,V,V,VII,V,V,34.19881382,-112.1027388
264,NA1754,HeiserSpr,AZI03101,12,467650,3929350,4900,,1070,1130,1100,III,III,V,III,III,35.50719579,-111.3567285
265,Tusay:16:2,DiggerWash,,12,587390,3883810,5360,,1350,1500,1425,,,,,,35.09329876,-110.0412445
266,Jero18:4,FitzMauric,AZN:7:17,12,376388,3826277,5150,,1125,1300,1213,IV,IV,VI,IV,IV,34.57083576,-112.3475846
267,NA 72,OldCavesP,AZI:10:1,12,451950,3903800,6800,,1250,1350,1300,V,V,VII,V,V,35.27618881,-111.5283447
268,NA 117,TurkeyTank,AZI05601,12,462780,3901160,6200,,1130,1240,1185,IV,IV,VI,IV,IV,35.25284587,-111.4091444
269,NA 358,Nalakihu,AZI06201,12,457370,3935720,5400,P3,1130,1210,1170,IV,IV,V,IV,IV,35.56424142,-111.4704199
270,NA 860,CraterGrp,AZI02001,12,447260,3915440,7200,P2,950,1070,1010,III,III,III,III,III,35.38090453,-111.5806625
271,NA 862,MedicineFt,AZI04301,12,447250,3916040,7200,P2,1020,1070,1045,III,III,IV,III,III,35.38631384,-111.5808114
272,NA 1139,WilsonPueb,AZI07301,12,475000,3891000,5800,P2-3,1070,1300,1185,IV,IV,VI,IV,IV,35.16161246,-111.2745081
273,NA1785,RidgeRuin,AZ106701,12,466820,3896650,7015,P3,1070,1210,1140,III,III,V,III,III,35.21232159,-111.3645532
274,NA 1814,JuniperTer,AZ103501,12,452960,3928640,6000,P3,1070,1210,1140,III,III,V,III,III,35.50020649,-111.5186713
275,NA 1959,CoyoteRang,AZ101801,12,440000,3899000,7000,P1-2,950,1070,1010,III,III,III,III,III,35.23226461,-111.6593861
276,NA 2002,NA 2002,AZ105301,12,447000,3919000,6700,P2,1110,1140,1125,III,III,V,III,III,35.41298905,-111.5837562
277,NA 2551,BakerRanch,AZ100101,12,439000,3922000,7300,P1,900,975,938,III,III,III,III,III,35.4395796,-111.67209
278,NA 3577,PittsbergF,AZH00901,12,394000,3909000,6800,P2,950,1070,1010,III,III,III,III,III,35.31860724,-112.1661341
279,NA 3941,NA 3941,AZK01901,12,614000,3940000,6100,,630,650,640,I,I,I,I,I,35.59717865,-109.7415288
280,NA 4120,Allantown,AZK00101,12,670240,3902840,6200,P1-2,900,1200,1050,III,III,III,III,III,35.25421381,-109.1286957
281,NA 4265,PageSite,AZ105901,12,453000,3900000,6700,P2,950,1150,1050,III,III,IV,III,III,35.24197527,-111.5165822
282,NA 5010,BlackCreek,AZK00801,12,671500,3922680,6700,BM3,550,750,650,I,I,I,I,I,35.43279743,-109.1106928
283,NA 5137,NA 5137,AZH01201,12,391000,3919000,6300,P2,1100,1150,1125,III,III,V,III,III,35.40843364,-112.2004655
284,NA 5150,NA 5150,AZH01501,12,391000,3922000,6200,P2,1100,1200,1150,IV,IV,V,IV,IV,35.43547812,-112.2008669
285,NA 5653,NA 5653,AZD03601,12,516380,4053250,5840,,700,950,825,,,,,,36.62464536,-110.8168022
286,NA 6706,NA 6706,AZD27501,12,536240,4041280,6400,P2,1025,1150,1088,III,III,IV,III,III,36.51618899,-110.5952504
287,NA 7207,Pershing,AZ003102,12,476200,3869400,6600,P2-3,900,1050,975,III,III,III,III,III,34.96686895,-111.2607118
288,NA 7295,NA 7295,AZK00601,12,670000,3908000,6200,BM3,,,,,,,,,35.3007576,-109.1302637
289,NA 7298,NA 7298,AZK00401,12,675000,3912000,6200,P2,,,,,,,,,35.33594253,-109.0744441
290,NA 7299,NA 7299,AZK00301,12,675000,3912000,6200,,,,,,,,,,35.33594253,-109.0744441
291,NA 7424,NA 7424,AZE00201,12,650000,4050000,6400,,600,800,700,I,I,I,I,I,36.58369307,-109.3233202
292,NA 7427,NA 7427,,12,619680,3948920,6150,,1125,1200,1163,IV,IV,V,IV,IV,35.67691325,-109.6775165
293,NA 7790,NA 7790,AZK02601,12,634000,3933000,6500,P3,,,,,,,,,35.53157609,-109.5219646
294,NA 8013,CrossCanyo,AZK02201,12,642720,3957100,6700,P1-2,1000,1050,1025,III,III,III,III,III,35.74757404,-109.4215468
295,NA 8022,Kinlichee,AZK01801,12,642920,3957760,6800,P3,900,1125,1013,III,III,III,III,III,35.7534935,-109.4192179
296,NA 8507,RedBead,AZ107201,12,457000,3896000,6500,P3,1000,1150,1075,III,III,IV,III,III,35.20608773,-111.47241
297,NA 8969,NA 8969,AZK03202,12,643000,3899000,6000,,700,950,825,,,,,,35.22386101,-109.42868
298,NA 9126,HuntersPt,AZK03301,12,664000,3927000,7000,P3,1100,1300,1200,IV,IV,VI,IV,IV,35.47299477,-109.1924072
299,NA 9454,Nahashchid,AZD08301,12,514000,4048000,6636,P2-3,1125,1225,1175,IV,IV,V,IV,IV,36.57735455,-110.8435162
300,NA10083,NA 10083,AZK07701,12,670000,3910000,6300,P2,850,1125,988,III,III,III,III,III,35.31878193,-109.1298488
301,NA 10085,NA 10085,AZK07703,12,664000,3907000,6100,P2-3,850,1150,1000,III,III,III,III,III,35.29274717,-109.1964248
302,NA 10738,NA 10738,AZD28501,12,542000,4045000,6600,P2,950,1150,1050,III,III,IV,III,III,36.54948856,-110.5307186
303,NA 10741,NA 10741,AZD28601,12,542760,4046000,6600,P2,1120,1150,1135,III,III,V,III,III,36.55846963,-110.5221716
304,NA 11053,NA 11053,AZD28201,12,530580,4036680,6260,,1050,1150,1100,III,III,V,III,III,36.47491757,-110.6586455
305,NA 11057,NA 11057,AZD28401,12,511880,4027320,5710,,950,1150,1050,III,III,IV,III,III,36.3909492,-110.86753
306,NA 11125,NA 11125,AZD29801,12,535125,4040300,6400,P3,950,1150,1050,III,III,IV,III,III,36.50739593,-110.6077477
307,NA 11250,NA 11250,AZD30001,12,542000,4046000,6591,P2-3,950,1150,1050,III,III,IV,III,III,36.55850336,-110.5306641
308,NA 11355,NA 11355,AZK07801,12,631400,3953100,6360,P2,,,,,,,,,35.7130977,-109.5473609
309,NA 11547,NA 11547,AZK07904,12,634000,3953000,6600,P1,,,,,,,,,35.71184603,-109.5186429
310,LA 22860,Cerrito,NMC01301,13,340650,4029650,6910,P3,1200,1280,1240,IV,IV,VI,IV,IV,36.3988067,-106.7769537
311,LA 22861,Cuchillo,NMC00101,13,336132,4026799,7240,P3,1200,1280,1240,IV,IV,VI,IV,IV,36.37235691,-106.826711
312,LA 649,Nogales,NMC00201,13,331560,4031000,7500,P3,1200,1280,1240,IV,IV,VI,IV,IV,36.40941997,-106.8785636
313,,Rattlesnak,NMC00301,13,336631,4038949,7600,P3,1200,1280,1240,IV,IV,VI,IV,IV,36.48192215,-106.8237106
314,,Carricito,NMC00801,13,338000,4038000,7600,P3,1200,1280,1240,IV,IV,VI,IV,IV,36.47360353,-106.8082364
315,,StarveoutR,NMB09701,13,306000,4023000,7200,P3,1200,1280,1240,IV,IV,VI,IV,IV,36.3325252,-107.1614602
316,NA 2515,Betatakin,AZD03801,12,541640,4059740,6700,P3,1240,1300,1270,IV,IV,VI,IV,IV,36.68238121,-110.5339418
317,,CliffHouse,AZD00501,12,513000,4094000,6400,P3,,,,,,,,,36.99204618,-110.8539086
318,,Site104Jed,AZJ01701,12,576950,3959200,6360,,1100,1300,1200,,,,,,35.77385173,-110.1486448
320,NA1039,Chakpahu,,12,574943,3957839,6400,,1250,1500,1375,V,V,VII,V,V,35.76173697,-110.1709749
321,NA 849,Kwaituki,,12,543100,3982877,5900,,1250,1300,1275,IV,IV,VI,IV,IV,35.98938701,-110.521855
322,,Phipps,,,,,,,,,,,,,,,NaN,NaN
323,LA64931,SU,NMS00901,12,698440,3730400,6440,,400,550,475,,,,,,33.69503166,-108.8589824
324,,CordovaCav,,,,,,,,,,,,,,,NaN,NaN
325,LA26963,MineralCrk,,12,623460,3793573,5450,,1000,1200,1100,,,,,,34.27600101,-109.6587897
326,LA2949,ApacheCrk,,12,719440,3745700,6400,,1150,1200,1175,IV,IV,V,IV,IV,33.82877532,-108.6287737
327,LA9726,TwinBridge,NMS01001,12,697180,3727140,6200,,,,,,,,,,33.66588357,-108.8732925
328,LA128135,WetLeget,,12,696100,3729840,6480,,900,1100,1000,V,V,VII,V,V,33.69041912,-108.8843378
329,,ChilcotRan,,,,,,,1150,1250,1200,,,,,,NaN,NaN
330,LA 2120,LA 2120,,13,290760,4065720,6700,,780,880,830,II,II,II,II,II,36.71414098,-107.3427143
331,LA 641,Capulin,NMC01201,13,335180,4011870,7470,,,,,,,,,,36.23767131,-106.8341646
332,LA 274,Poshu,NMC01901,13,385530,4008035,6030,,1375,1500,1438,V,V,VIII,VI,VI,36.21038319,-106.2734469
333,LA 965,LA 965,,,,,,,,,,,,,,,NaN,NaN
334,LA 977,LA 977,,,,,,,,,,,,,,,NaN,NaN
335,LA 1326,LA 1326,,13,244390,3871010,6835,,,,,,,,,,34.94939919,-107.7990466
336,LA 1352,LA 1352,,,,,,,,,,,,,,,NaN,NaN
337,LA 2497,LA 2497,,12,713065,3983354,5890,,1050,1125,1088,III,III,IV,III,III,35.97136521,-108.6370269
338,LA 2585,IndianCree,,12,737990,3998900,5780,,1000,1150,1075,III,III,IV,III,III,36.10561713,-108.3561701
339,LA 2675,LA 2675,,12,771205,3918590,7000,,1000,1150,1075,III,III,IV,III,III,35.3738033,-108.0147518
340,LA 2859,LA 2859,,13,310520,8906887,6000,,,,,,,,,,80.08182341,-114.9003529
341,LA 2985,LA 2985,,12,759729,3951181,6885,,1100,1200,1150,IV,IV,V,IV,IV,35.67035104,-108.1304919
342,LA 3122,Sedillo,,13,345731,3882891,5010,,800,1050,925,III,III,III,III,III,35.07699592,-106.6920909
343,LA 3213,CaptTomLoc,,12,708568,4016589,,,,,,,,,,,36.27172978,-108.6780593
344,LA 3280,LA 3280,,12,712340,3734200,,,,,,,,,,,33.7265885,-108.7082033
345,LA 6402,McCartys,,13,259320,3884540,,,,,,,,,,,35.07493183,-107.6396304
346,LA 8779,Casamero,NMG11001,12,767450,3924000,6940,,1000,1180,1090,III,III,IV,III,III,35.42353358,-108.0542624
348,LA 82,Tyuonyi,NMI04501,13,384970,3960250,6100,,1325,1540,1433,V,V,VIII,VI,VI,35.77959667,-106.2727358
349,LA 99,Atsinna,NMG01101,12,741440,3880260,7400,,1275,1385,1330,V,V,VII,V,V,35.0361972,-108.3532875
350,LA 120,GranQuivir,NMO00201,13,399480,3791290,6500,,1550,1670,1610,VI,V,IX,VI,VII,34.25788943,-106.0917794
351,LA 252,Te'ewi,NMC01801,13,396169,3995914,5900,,1250,1500,1375,V,V,VII,V,V,36.10232685,-106.1535122
352,,HarrisVill,NMZ00201,13,221550,3639350,6000,,,,,,,,,,32.85691978,-107.9754097
353,,MogollonV,NMS00101,12,692720,3700460,5147,,,,,,,,,,33.42621767,-108.9271208
354,5MT23,GrassMesa,COV19501,12,716020,4161100,6840,,720,920,820,,,,,,37.57162217,-108.5539143
355,5MT2181,Della Olla,COV20801,12,717360,4157140,6800,,780,920,850,II,II,II,II,II,37.53564608,-108.5399269
356,5MT2182,RioVista,COV21001,12,717800,4157120,6840,,780,900,840,II,II,II,II,II,37.53536215,-108.5349572
357,5MT2193,DosCasas,COV18901,12,714041,4154654,6940,,760,800,780,I,I,I,I,I,37.51403466,-108.5781845
358,5MT2320,HouseCreek,,12,718340,4155620,6940,,820,900,860,II,II,II,II,II,37.52172662,-108.5292965
359,5MT4477,MesaNegra,COV20901,12,716520,4154840,6840,,860,980,920,III,III,III,III,III,37.51513136,-108.5501039
360,5MT4644,WindyWheat,COV19601,12,716300,4156400,7100,,720,820,770,I,I,I,I,I,37.52923136,-108.5521319
361,5MT4684,ChindiHam,COV19701,12,717000,4155000,6800,,660,700,680,I,I,I,I,I,37.51645947,-108.5446301
362,5MT4725,TresChapul,COV20701,12,717000,4155000,6800,,840,900,870,II,II,II,II,II,37.51645947,-108.5446301
363,5MT5106,WeaselPueb,COV21801,12,716600,4154970,6840,,840,900,870,II,II,II,II,II,37.51628329,-108.5491611
364,5DL1120,DoveCreek,COV26101,12,691160,4176500,6880,,,,,,,,,,37.71582625,-108.8311872
365,5MT4480,RabbitBrus,COV20601,12,716700,4154930,6820,,860,920,890,II,II,II,II,II,37.51589959,-108.5480424
366,,LaPlata15,,12,734800,4100350,,,,,,,,,,,37.02001333,-108.3606552
367,,LaPlata17,,12,726220,4101280,,,,,,,,,,,37.03049378,-108.4567339
368,,LaPlata21,,12,748660,4111270,,,,,,,,,,,37.11476626,-108.2014089
369,,LaPlata22,,12,750420,4101460,6100,,700,800,750,I,I,I,I,I,37.02597382,-108.1848914
370,,LaPlata24,,12,743920,4105100,6700,,700,800,750,I,I,I,I,I,37.0604589,-108.2567043
371,,LaPlata25,COV01601,12,740060,4104245,6960,,800,870,835,II,II,II,II,II,37.05375594,-108.3003453
372,,LaPlata26,,,,,,,800,870,835,,,,,,NaN,NaN
373,5MT2829,LaPlata27,,12,733310,4108350,6700,,800,870,835,II,II,II,II,II,37.09242349,-108.3749058
374,,LaPlata30,,12,733460,4111800,6750,,800,870,835,II,II,II,II,II,37.12345256,-108.3721458
375,,LaPlata31,,12,733800,4111800,6750,,800,870,835,II,II,II,II,II,37.12336769,-108.3683224
376,,LaPlata34,,12,750500,4095770,6000,,800,870,835,II,II,II,II,II,36.97472246,-108.1858832
377,LA3293,LaPlata42,,12,750541,4096767,6060,,1150,1300,1225,IV,IV,VI,IV,IV,36.98368809,-108.1850922
378,LA1644,CristoRey,,13,352025,3518580,3770,,,,,,,,,,31.79322343,-106.5630286
379,,PrayerRock,AZE03601,12,660020,4055420,6600,,600,700,650,I,I,I,I,I,36.63090285,-109.2102375
380,LA5596,ToadlenaSc,,12,689430,4011990,6760,,1050,1150,1100,III,III,V,III,III,36.23424164,-108.8920954
381,LA10267,LA 10267,,12,726205,4092966,6560,,,,,,,,,,36.95562528,-108.4593957
382,640,SpruceTree,COVO8801,12,723120,4118060,6880,P3,1200,1300,1250,IV,IV,VI,IV,IV,37.18234924,-108.4865633
383,LA631,VillGreatK,NMGO1201,12,709750,3897300,6800,,1050,1300,1175,IV,IV,VI,IV,IV,35.19680678,-108.6960912
384,LA530,Shabik'esh,NMB01701,13,243130,3989125,6380,BM3,500,750,625,I,I,I,I,I,36.01278683,-107.850164
385,LA554,Kiatuthlan,,12,645650,3852100,5600,,800,1200,1000,,,,,,34.80072705,-109.4077872
386,,FajadaBut,,13,237840,3989680,,,,,,,,,,,36.0163755,-107.908977
387,,PonchoHous,,12,614725,4104950,4600,,1200,1300,1250,IV,IV,VI,IV,IV,37.08381855,-109.7092201
388,NA2187,WhiteHouse,AZE01802,12,637780,3999640,6100,,1050,1300,1175,IV,IV,VI,IV,IV,36.13168384,-109.4687851
389,LA3,La Messita,,13,396736,3935892,6415,,,,,,,,,,35.56132519,-106.1394514
390,LA12,ArroyoHond,NMJ03001,13,415586,3942185,7120,,1275,1540,1408,V,V,VIII,VI,VI,35.61984519,-105.9321387
391,LA240,Tunque,NMI00101,13,377229,3914048,5580,,1420,1540,1480,VI,V,VIII,VI,VI,35.36219214,-106.3513513
392,LA295,Kotyiti,,13,373850,3951620,6500,,1600,1700,1650,,,IX,VI,VII,35.7004439,-106.3943832
393,LA7,PLaBajada,,13,387034,3934950,,,,,,,,,,,35.55177436,-106.2463536
394,LA16,Cieneguila,,13,398283,3939593,6120,,1275,1540,1408,V,V,VIII,VI,VI,35.59484924,-106.1228499
395,LA5,LosAquajes,NMI02401,13,388895,3944097,6580,,1400,1540,1470,VI,V,VIII,VI,VI,35.63444031,-106.2270833
397,LA91-92,San Lazaro,,13,405610,3914003,5960,,1275,1540,1408,V,V,VIII,VI,VI,35.36487581,-106.0390066
398,LA98,SanMarcos,NMI03501,13,403281,3924590,6080,,1325,1540,1433,V,V,VIII,VI,VI,35.46009728,-106.0658956
399,LA80,SanCristob,NMJ01901,13,423287,3915271,6200,,1325,1540,1433,V,V,VIII,VI,VI,35.37782423,-105.8445655
400,LA126581,Tommy,,12,752300,4066100,,,,,,,,,,,36.70710323,-108.1755335
401,LA8610,Middle,,12,749820,4065560,,,,,,,,,,,36.70289628,-108.2034429
402,LA126582,MineCanyon,,12,753300,4065700,,,,,,,,,,,36.70323566,-108.1644834
403,LA126584,LoneKiva,,12,755950,4064700,,,,,,,,,,,36.69352207,-108.1351863
404,LA80377,LA 80377,,12,726460,3992050,5660,,1125,1300,1213,IV,IV,VI,IV,IV,36.04667571,-108.4861086
405,LA80440,LA 80440,,12,699390,3951040,6500,,1000,1125,1063,III,III,IV,III,III,35.68312277,-108.7966492
406,LA80934,LA 80934,,12,712900,3975870,5950,,1000,1125,1063,III,III,IV,III,III,35.9039826,-108.6408608
407,LA8619,Point,,12,752500,4066230,,,,,,,,,,,36.70822061,-108.173254
408,LA 2501,,,12,712370,3975240,5950,,600,725,663,I,I,I,I,I,35.89842247,-108.6468973
409,LA 2508,,,12,704910,3959240,6180,,1075,1125,1100,III,III,V,III,III,35.75586747,-108.7336005
410,LA 80407,,,12,710680,3969850,6040,,600,725,663,I,I,I,I,I,35.85023131,-108.6670336
411,LA 80422,,,12,707240,3963140,6130,,600,725,663,I,I,I,I,I,35.79051455,-108.706839
412,1676,BadgerComm,,12,719124,4118259,7150,,625,750,688,I,I,I,I,I,37.18508752,-108.5314813
413,,StepHouse,COV09002,12,718740,4119400,7160,,1150,1300,1225,IV,IV,VI,IV,IV,37.19545314,-108.5354694
414,,SpringHous,COV08701,12,719920,4118980,7000,,1150,1300,1225,IV,IV,VI,IV,IV,37.1913935,-108.5223094
415,,Rainbow551,AZDO1101,12,536120,4030840,6660,,1075,1125,1100,III,III,V,III,III,36.4220768,-110.597078
416,NA 618,ThreeCourt,,12,455270,3932830,5530,,1070,1130,1100,III,III,V,III,III,35.53809172,-111.4934329
417,NA 681,,,12,453555,3933080,5600,,1130,1210,1170,IV,IV,V,IV,IV,35.5402669,-111.5123653
418,NA 682,HouseTrag,,12,453825,3933145,5580,,1130,1210,1170,IV,IV,V,IV,IV,35.54086557,-111.5093906
419,NA 680,,,12,453370,3933100,5610,,1130,1210,1170,IV,IV,V,IV,IV,35.54043853,-111.5144073
420,NA11385,Painted Ca,,12,651340,4055780,6300,,1200,1300,1250,IV,IV,VI,IV,IV,36.63556551,-109.3072096
421,LA1,Pindi,NMI02301,13,408905,3946832,6500,,1275,1400,1338,V,V,VII,V,V,35.66114499,-106.0064288
422,,Piedra Dis,COW00102,13,291000,4115000,6400,,,,,,,,,,37.15805608,-107.3536467
423,LA8758,Kechipauan,,12,684120,3867260,6200,,1425,1680,1553,VI,V,IX,VI,VII,34.93112301,-108.9841154
424,LA37,Hawikuh,,12,685660,3876530,6100,,1400,1680,1540,VI,V,IX,VI,VII,35.01438137,-108.965198
425,,TontoCreek,,12,471300,3749900,2400,,1090,1320,1205,IV,IV,VI,IV,IV,33.88907239,-111.3103781
426,,Alkali II,UTW00101,12,645140,4167520,6240,PII,950,1150,1050,III,III,IV,III,III,37.64336829,-109.3548678
427,,Alkali III,UTW00101,12,645140,4167520,6240,PIII,1150,1300,1225,IV,IV,VI,IV,IV,37.64336829,-109.3548678
428,,Awato Late,AZJ00101,12,565250,3953400,6400,,1600,1700,1650,,,IX,VI,VII,35.72240788,-110.2785526
429,,Awatov BW,AZJ00101,12,565250,3953400,6400,,1150,1300,1225,IV,IV,VI,IV,IV,35.72240788,-110.2785526
430,,Awat Sikya,AZJ00101,12,565250,3953400,6400,,1400,1625,1513,VI,V,IX,VI,VII,35.72240788,-110.2785526
431,,Snaketown,AZU:13:1,12,414080,3672000,,,,,,,,,,,33.18342498,-111.9216542
432,LA38,Cuyamanque,,13,409360,3967840,6080,,1275,1540,1408,V,V,VIII,VI,VI,35.85057248,-106.0037785
433,LA40,Pblanco,NMI02001,13,409218,3906639,6360,,1325,1540,1433,V,V,VIII,VI,VI,35.29882005,-105.9984798
434,LA59,Yunque,,13,402160,3990450,5640,,1275,1600,1438,V,V,VIII,VI,VI,36.05369549,-106.0862884
435,LA62,Pcolorado,,13,419925,3906566,6850,,1325,1540,1433,V,V,VIII,VI,VI,35.29907673,-105.8807233
436,LA95,Quarai,,13,381187,3828870,6620,,1275,1540,1408,V,V,VII,V,V,34.59477992,-106.2956421
437,LA183,Plargo,NMJ01501,13,423400,3908360,6780,,1275,1540,1408,V,V,VIII,VI,VI,35.31552372,-105.8426742
438,LA275,Abiquiu,,13,381680,4007640,,,1350,1500,1425,V,V,VIII,VI,VI,36.2063596,-106.3162075
439,LA277,LomaLothro,,13,437123,3934945,6950,,1275,1400,1338,V,V,VII,V,V,35.55617531,-105.693772
440,LA908,Tsana,,13,390972,4006151,5900,,1375,1500,1438,V,V,VII,V,V,36.19403039,-106.2126567
441,,SanIldefon,,13,399107,3972397,,,,,,,,,,,35.89064911,-106.1178823
442,,Heshotauth,,12,696248,3882664,6600,,1275,1385,,,,,,,35.06765438,-108.8477763
443,LA4131,Sandoval V,,,,,,,,,,,,,,,NaN,NaN
444,LA 4191,,,,,,,,,,,,,,,,,
445,LA 4195,Sambrito V,,,,,,,,,,,,,,,,
446,LA 4169,,,,,,,,,,,,,,,,,
447,LA 4088,,,,,,,,,,,,,,,,,
448,LA 4118,,,,,,,,,,,,,,,,,
449,LA 4148,,,,,,,,,,,,,,,,,
450,LA 4380,Bancos V,,,,,,,,,,,,,,,,
451,LA 4384,Cemetery V,,,,,,,,,,,,,,,,
452,42GA34,Coombs V,,,,,,,,,,,,,,,,
453,42GA367,Buried Oll,,,,,,,,,,,,,,,,
454,42KA433,Benchmark,,,,,,,,,,,,,,,,
455,42SA323,WqtchTower,,,,,,,,,,,,,,,,
456,42SA375,HawkHollow,,,,,,,,,,,,,,,,
457,42SA454,SteerPalac,,,,,,,,,,,,,,,,
458,42SA544,HorseflyHo,,,,,,,,,,,,,,,,
459,42SA576,ShadyAlcov,,,,,,,,,,,,,,,,
460,42SA623,Lyman,,,,,,,,,,,,,,,,
461,42SA736,IvyShelter,,,,,,,,,,,,,,,,
462,NA7166,,,,,,,,,,,,,,,,,
463,NA7486,,,,,,,,,,,,,,,,,
464,NA7498,Surprise P,,,,,,,,,,,,,,,,
465,NA7508,Trail Shel,,,,,,,,,,,,,,,,
466,NA7713,Pottery P,,,,,,,,,,,,,,,,
467,NA8317,,,,,,,,,,,,,,,,,
468,NA4075,Guardian P,,,,,,,,,,,,,,,,
469,NA7081,,,,,,,,,,,,,,,,,
470,NA7455,,,,,,,,,,,,,,,,,
471,NA8384,,,,,,,,,,,,,,,,,
472,NA8531,,,,,,,,,,,,,,,,,
473,NA8639,,,,,,,,,,,,,,,,,
474,NA8641,,,,,,,,,,,,,,,,,
475,42SA3205,DeadJunipe,,,,,,,,,,,,,,,,
476,42IN40,Evans M,,,,,,,,,,,,,,,,
477,42WS200,Paunaweap,,,,,,,,,,,,,,,,
478,42SA2160,Kiln,,,,,,,,,,,,,,,,
479,42MD180,Phard V,,,,,,,,,,,,,,,,
480,42WA164,Frei,,,,,,,,,,,,,,,,
481,42SV7,OldWoman,,,,,,,,,,,,,,,,
482,42SV5,SNakeRock,,,,,,,,,,,,,,,,
483,42TO4-12,Grantsvill,,,,,,,,,,,,,,,,
484,NA2676,Floating H,,,,,,,,,,,,,,,,
485,CHIH:D:9:1,Paquime,,,,,4870,PIV,1200,1450,,,,,,,,
486,CHIH:9:14,Reyes #2,,,,,,,,,,,,,,,,
487,CHIIH:G:2:,Robles #2,,,,,,,,,,,,,,,,
